City_ID,City,Lat,Lng,Max Temp,Humidity,Cloudiness,Wind Speed,Country,Date
0,port-aux-francais,-49.35,70.2167,0.98,73,16,19.9,TF,1696017637
1,bilibino,68.0546,166.4372,-5.48,98,100,2.68,RU,1696017637
2,flin flon,54.7682,-101.865,12.91,88,100,1.03,CA,1696017638
3,lompoc,34.6391,-120.4579,26.68,74,20,4.63,US,1696017638
4,sopur,34.3,74.4667,11.56,48,6,2.44,IN,1696017638
5,cold lake,54.4502,-110.2017,8.97,93,100,4.63,CA,1696017639
6,rio gallegos,-51.6226,-69.2181,13.03,35,0,6.17,AR,1696017393
7,colchani,-20.3,-66.9333,17.89,13,0,5.05,BO,1696017639
8,edinburgh of the seven seas,-37.0676,-12.3116,10.96,78,100,14.97,SH,1696017639
9,aykhal,66.0,111.5,2.04,98,100,5.62,RU,1696017640
10,hermanus,-34.4187,19.2345,14.95,90,78,4.59,ZA,1696017640
11,tazovsky,67.4667,78.7,-1.22,85,9,8.54,RU,1696017640
12,bethel,41.3712,-73.414,14.37,89,100,2.24,US,1696017641
13,windsor,42.3001,-83.0165,21.79,81,100,3.09,CA,1696017413
14,thompson,55.7435,-97.8558,13.09,67,75,1.03,CA,1696017641
15,adamstown,-25.066,-130.1015,20.78,82,47,10.09,PN,1696017641
16,waitangi,-43.9535,-176.5597,9.9,93,100,3.58,NZ,1696017642
17,lata,40.1629,-8.3327,25.51,81,6,1.06,PT,1696017642
18,margaret river,-33.95,115.0667,15.54,68,30,8.06,AU,1696017642
19,albany,42.6001,-73.9662,17.36,90,100,1.7,US,1696017643
20,stephenville,32.2207,-98.2023,34.41,34,40,3.6,US,1696017420
21,khvoynaya,58.9,34.5333,13.95,77,100,2.62,RU,1696017643
22,yellowknife,62.456,-114.3525,7.45,81,75,3.6,CA,1696017458
23,la sarre,48.8002,-79.1996,20.18,42,15,3.03,CA,1696017644
24,vadso,70.0744,29.7487,10.49,100,75,3.09,NO,1696017644
25,isafjordur,66.0755,-23.124,4.54,78,100,8.87,IS,1696017644
26,klyuchi,52.2667,79.1667,12.16,65,100,0.54,RU,1696017645
27,tura,25.5198,90.2201,24.15,94,100,1.94,IN,1696017645
28,new plymouth,-39.0667,174.0833,9.34,71,100,12.69,NZ,1696017645
29,teofilo otoni,-17.8575,-41.5053,27.78,50,51,4.51,BR,1696017638
30,celestun,20.8667,-90.4,29.19,72,13,5.53,MX,1696017646
31,happy valley-goose bay,53.3168,-60.3315,18.17,45,75,4.63,CA,1696017646
32,alzamay,55.5562,98.6644,8.83,88,100,2.95,RU,1696017647
33,gaigeturi,33.4644,126.3183,21.03,73,100,2.06,KR,1696017647
34,portland,45.5234,-122.6762,16.14,82,100,4.63,US,1696016909
35,nacozari de garcia,30.3742,-109.6908,32.9,21,0,5.51,MX,1696017647
36,bel ombre,-4.6167,55.4167,23.91,94,75,5.66,SC,1696017648
37,nar'yan-mar,67.6713,53.087,1.77,79,99,6.56,RU,1696017648
38,st. john's,47.5649,-52.7093,18.66,69,75,5.36,CA,1696017544
39,ushuaia,-54.8,-68.3,11.79,46,0,7.2,AR,1696017359
40,grytviken,-54.2811,-36.5092,-1.94,91,86,7.14,GS,1696017649
41,laojunmiao,39.8333,97.7333,7.95,29,0,4.88,CN,1696017649
42,ilulissat,69.2167,-51.1,1.01,80,75,0.51,GL,1696017649
43,egersund,58.4513,5.9997,13.94,82,36,9.44,NO,1696017650
44,ust-nera,64.5667,143.2,-6.34,91,11,0.79,RU,1696017650
45,sydney,-33.8679,151.2073,15.95,91,0,3.09,AU,1696017244
46,kodiak,57.79,-152.4072,8.69,75,100,0.28,US,1696017650
47,ribeira grande,38.5167,-28.7,21.54,94,75,3.6,PT,1696017651
48,puerto natales,-51.7236,-72.4875,13.25,33,75,8.23,CL,1696017651
49,west island,-12.1568,96.8225,24.99,83,75,6.69,CC,1696017651
50,iqaluit,63.7506,-68.5145,1.85,87,100,7.2,CA,1696017652
51,margate,51.3813,1.3862,15.39,73,95,4.26,GB,1696017543
52,lihue,21.9789,-159.3672,27.42,81,100,3.47,US,1696017652
53,keflavik,64.0049,-22.5624,8.95,81,40,2.06,IS,1696017653
54,puerto ayora,-0.7393,-90.3518,26.98,89,37,5.36,EC,1696017653
55,tahe,52.3333,124.7333,3.57,84,98,2.3,CN,1696017653
56,zaozersk,69.4005,32.4476,10.07,95,100,5.94,RU,1696017654
57,xindian,36.7975,118.2944,16.44,92,1,3.46,CN,1696017654
58,stanley,54.868,-1.6985,12.66,86,20,5.66,GB,1696017654
59,college,64.8569,-147.8028,3.22,65,75,1.54,US,1696017495
60,bredasdorp,-34.5322,20.0403,13.75,92,77,1.88,ZA,1696017655
61,tadine,-21.55,167.8833,19.69,64,0,5.66,NC,1696017655
62,novyy urengoy,66.0833,76.6333,-1.03,82,8,6.79,RU,1696017655
63,anse la raye,13.9333,-61.0333,30.83,67,20,4.63,LC,1696017656
64,trairi,-3.2778,-39.2689,27.28,64,27,5.78,BR,1696017605
65,pisco,-13.7,-76.2167,20.03,77,41,5.14,PE,1696017656
66,tiksi,71.6872,128.8694,-2.69,92,100,6.24,RU,1696017657
67,susuman,62.7833,148.1667,-4.5,82,94,1.6,RU,1696017657
68,bontang,0.1333,117.5,24.8,88,100,3.35,ID,1696017396
69,invercargill,-46.4,168.35,6.12,79,100,5.36,NZ,1696017657
70,hasaki,35.7333,140.8333,23.22,75,0,5.02,JP,1696017658
71,nemuro,43.3236,145.575,15.43,73,93,3.84,JP,1696017658
72,tolanaro,-25.0319,46.9987,23.04,88,20,8.23,MG,1696017658
73,jiamusi,46.8333,130.35,10.69,76,100,3.86,CN,1696017659
74,big spring,32.2504,-101.4787,33.25,37,0,8.23,US,1696017659
75,tarfaya,27.9358,-12.9218,22.74,84,3,4.79,MA,1696017659
76,kapa'a,22.0752,-159.319,27.49,75,75,6.17,US,1696017503
77,belmonte,-15.8631,-38.8828,24.87,73,100,2.58,BR,1696017660
78,weno,7.4515,151.8468,26.97,94,75,2.57,FM,1696017661
79,port elizabeth,-33.918,25.5701,20.16,61,0,2.06,ZA,1696017661
80,port sudan,19.6175,37.2164,32.7,42,3,1.81,SD,1696017662
81,vilyuchinsk,52.9306,158.4028,-0.85,74,100,0.32,RU,1696017662
82,praia da vitoria,38.7333,-27.0667,24.14,83,40,6.3,PT,1696017663
83,kerikeri,-35.2268,173.9474,12.73,90,100,0.89,NZ,1696017663
84,kingston,17.997,-76.7936,31.53,85,20,7.2,JM,1696017383
85,baley,51.6,116.6333,2.7,76,32,0.72,RU,1696017664
86,hawaiian paradise park,19.5933,-154.9731,28.35,76,0,2.57,US,1696017573
87,porto novo,6.4965,2.6036,24.9,87,100,2.13,BJ,1696017665
88,blackmans bay,-43.0167,147.3167,6.96,92,97,2.51,AU,1696017665
89,fort mcmurray,56.7268,-111.381,7.77,93,100,4.12,CA,1696017607
90,tionk essil,12.7856,-16.5217,29.98,85,24,2.22,SN,1696017666
91,yenangyaung,20.4667,94.8833,24.12,94,100,2.38,MM,1696017666
92,kayangel,8.0823,134.7173,28.0,80,100,8.83,PW,1696017666
93,uturoa,-16.7333,-151.4333,25.64,78,70,8.87,PF,1696017667
94,fellsmere,27.7678,-80.6014,29.99,83,100,2.68,US,1696017667
95,zhanaozen,43.3,52.8,17.15,36,86,2.81,KZ,1696017668
96,sitia,35.2,26.0986,23.88,77,13,4.18,GR,1696017668
97,jamestown,42.097,-79.2353,21.4,69,100,2.06,US,1696017654
98,andergrove,-21.0833,149.1833,17.03,82,12,3.28,AU,1696017669
99,whitehorse,60.7161,-135.0538,7.28,95,100,2.57,CA,1696017669
100,cidreira,-30.1811,-50.2056,18.8,83,60,8.77,BR,1696017669
101,vorgashor,67.5833,63.95,-0.4,79,95,0.74,RU,1696017670
102,mabaruma,8.2,-59.7833,31.54,65,19,3.82,GY,1696017670
103,modakeke,7.3833,4.2667,24.82,96,95,1.51,NG,1696017670
104,monte argentario,42.4345,11.1195,21.89,70,22,5.22,IT,1696017670
105,geraldton,-28.7667,114.6,10.23,93,40,3.6,AU,1696017671
106,punta arenas,-53.15,-70.9167,10.06,50,0,5.66,CL,1696017621
107,remire-montjoly,4.9167,-52.2667,32.02,62,20,5.14,GF,1696017671
108,pacific grove,36.6177,-121.9166,24.01,86,35,1.79,US,1696017672
109,haiku-pauwela,20.9219,-156.3051,28.36,75,23,7.65,US,1696017672
110,tofol,5.3248,163.0078,25.08,97,100,7.34,FM,1696017673
111,nuuk,64.1835,-51.7216,2.34,87,75,7.6,GL,1696017673
112,gazojak,41.1875,61.4036,18.11,30,9,2.65,TM,1696017673
113,muynoq,43.7683,59.0214,16.38,67,66,3.44,UZ,1696017674
114,el granada,37.5027,-122.4694,25.45,84,100,9.77,US,1696017674
115,badger,64.8,-147.5333,3.17,66,75,0.0,US,1696017674
116,sandnessjoen,66.0217,12.6316,10.29,87,100,3.99,NO,1696017675
117,sault ste. marie,46.5168,-84.3333,19.16,70,100,3.6,CA,1696017501
118,holualoa,19.6228,-155.9522,27.15,72,17,1.79,US,1696017675
119,mejit,10.2753,170.8646,28.62,76,100,6.81,MH,1696017675
120,ponta delgada,37.7333,-25.6667,23.4,94,40,6.17,PT,1696017617
121,talnakh,69.4865,88.3972,-2.66,85,100,5.33,RU,1696017676
122,souk ahras,36.2864,7.9511,16.42,78,0,1.88,DZ,1696017676
123,ghat,24.9647,10.1728,28.08,29,68,6.11,LY,1696017677
124,valparaiso,-33.0393,-71.6273,16.8,57,0,5.14,CL,1696017523
125,tazacorte,28.629,-17.9293,24.54,85,75,0.51,ES,1696017677
126,robertsport,6.7533,-11.3686,26.62,86,97,3.3,LR,1696017677
127,eyl,7.9803,49.8164,26.6,81,49,8.81,SO,1696017678
128,general conesa,-40.1,-64.4333,14.88,26,0,4.18,AR,1696017678
129,port lincoln,-34.7333,135.8667,19.61,30,0,6.92,AU,1696017678
130,khandyga,62.6667,135.6,-1.94,64,68,1.77,RU,1696017679
131,northam,51.0333,-4.2167,14.81,90,100,2.69,GB,1696017679
132,hithadhoo,-0.6,73.0833,28.06,76,0,6.74,MV,1696017679
133,ulaangom,49.9811,92.0667,6.1,66,100,0.48,MN,1696017680
134,smithers,54.7804,-127.1743,10.18,71,75,3.09,CA,1696017680
135,port mathurin,-19.6833,63.4167,22.86,65,62,8.44,MU,1696017664
136,katsuren-haebaru,26.3369,127.8719,28.43,94,40,2.06,JP,1696017680
137,bodo,67.28,14.405,12.02,94,75,3.09,NO,1696017681
138,papatowai,-46.5619,169.4708,4.59,76,100,9.29,NZ,1696017681
139,chengde,40.9725,117.9361,9.58,65,0,2.47,CN,1696017681
140,detroit lakes,46.8172,-95.8453,18.81,90,100,1.54,US,1696017682
141,guarapari,-20.6667,-40.4975,22.16,82,100,2.66,BR,1696017522
142,newman,37.3138,-121.0208,28.46,30,6,1.93,US,1696017683
143,saudarkrokur,65.7461,-19.6394,5.18,83,100,1.64,IS,1696017683
144,kailua-kona,19.6406,-155.9956,28.66,73,17,1.79,US,1696017595
145,andradina,-20.8961,-51.3794,35.09,27,4,3.19,BR,1696017531
146,dunedin,-45.8742,170.5036,4.33,85,76,4.02,NZ,1696017333
147,kiunga,-6.1219,141.2906,21.98,98,100,1.73,PG,1696017684
148,saipan,15.1355,145.701,28.68,77,100,5.05,MP,1696017684
149,kapuskasing,49.4169,-82.4331,22.05,35,40,5.14,CA,1696017396
150,humaita,-7.5061,-63.0208,35.58,38,92,1.03,BR,1696017685
151,utrik,11.2278,169.8474,28.76,78,97,7.37,MH,1696017685
152,paso de los libres,-29.7131,-57.0899,23.02,53,20,7.72,AR,1696017660
153,colonia,50.9333,6.95,17.2,84,100,4.12,DE,1696017616
154,vila velha,-20.3297,-40.2925,22.97,81,100,5.14,BR,1696017686
155,easton,40.6884,-75.2207,20.1,87,100,5.14,US,1696017687
156,el gouna,27.3942,33.6782,33.05,35,0,4.49,EG,1696017687
157,coquimbo,-29.9533,-71.3436,15.85,72,40,7.2,CL,1696017687
158,avarua,-21.2078,-159.775,26.03,83,6,6.17,CK,1696017688
159,solleftea,63.1667,17.2667,11.92,90,90,1.76,SE,1696017688
160,hilo,19.7297,-155.09,28.47,75,0,2.68,US,1696017391
161,luderitz,-26.6481,15.1594,15.43,68,5,2.98,NA,1696017689
162,opuwo,-18.0607,13.84,21.44,44,7,3.6,NA,1696017689
163,tezu,27.9167,96.1667,24.07,86,7,2.33,IN,1696017689
164,olonkinbyen,70.9221,-8.7187,2.58,83,100,7.16,SJ,1696017690
165,carnarvon,-24.8667,113.6333,18.85,77,3,9.76,AU,1696017690
166,leh,34.1667,77.5833,7.76,29,20,2.39,IN,1696017690
167,wailua homesteads,22.0669,-159.378,27.08,81,100,3.58,US,1696017690
168,longyearbyen,78.2186,15.6401,0.91,69,75,2.57,SJ,1696017471
169,alofi,-19.0595,-169.9187,24.94,88,45,4.12,NU,1696017691
170,minna,9.6139,6.5569,26.84,83,0,2.57,NG,1696017691
171,chico,39.7285,-121.8375,26.47,36,40,3.6,US,1696017584
172,georgetown,5.4112,100.3354,26.12,95,20,2.06,MY,1696017605
173,bata,1.8639,9.7658,25.72,85,97,2.04,GQ,1696017692
174,patterson,37.4716,-121.1297,27.23,28,5,2.79,US,1696017602
175,la'ie,21.6477,-157.9253,29.98,78,97,1.79,US,1696017693
176,porbandar,21.6422,69.6093,28.02,76,100,4.14,IN,1696017693
177,pariaman,-0.619,100.12,25.03,86,55,1.45,ID,1696017694
178,chiredzi,-21.05,31.6667,24.84,60,3,1.61,ZW,1696017694
179,papao,-17.75,-149.55,26.82,82,46,10.0,PF,1696017694
180,inarajan village,13.2736,144.7484,26.33,96,100,3.07,GU,1696017694
181,princeville,45.7668,-61.2985,20.73,64,0,4.12,CA,1696017695
182,faya-largeau,17.9257,19.1043,32.36,38,93,2.0,TD,1696017695
183,bembereke,10.2283,2.6634,24.24,75,100,1.71,BJ,1696017696
184,mount isa,-20.7333,139.5,22.87,38,0,4.63,AU,1696017696
185,jhinjhak,26.5667,79.7333,25.97,44,70,2.05,IN,1696017696
186,ulety,51.3572,112.4849,4.51,89,93,1.63,RU,1696017697
187,puerto deseado,-47.7503,-65.8938,10.76,55,36,11.11,AR,1696017697
188,marinette,45.1,-87.6307,21.05,68,100,3.6,US,1696017697
189,atafu village,-8.5421,-172.5159,28.69,71,5,4.7,TK,1696017698
190,nicoya,10.1483,-85.452,30.21,72,91,1.87,CR,1696017698
191,lebu,-37.6167,-73.65,13.59,71,0,5.95,CL,1696017698
192,santa ana,33.7456,-117.8678,24.52,68,100,3.09,US,1696017698
193,beau vallon,-20.4189,57.6953,23.45,83,75,4.63,MU,1696017699
194,sao joao da barra,-21.6403,-41.0511,23.05,76,100,4.6,BR,1696017681
195,polyarnyy,69.1989,33.4478,10.5,91,100,5.85,RU,1696017699
196,sisimiut,66.9395,-53.6735,2.52,83,79,1.57,GL,1696017700
197,yung shue wan,22.2333,114.1167,29.26,81,8,0.45,HK,1696017700
198,namibe,-15.1961,12.1522,19.13,86,89,4.67,AO,1696017700
199,ambon,-3.6954,128.1814,27.15,95,40,2.57,ID,1696017701
200,iskateley,67.6803,53.1512,1.71,79,99,6.6,RU,1696017701
201,larisa,39.6372,22.4203,20.59,94,40,0.0,GR,1696017701
202,leticia,-4.2153,-69.9406,33.03,62,40,2.06,CO,1696017702
203,hammerfest,70.6634,23.6821,8.25,93,75,2.06,NO,1696017702
204,paita,-5.0892,-81.1144,22.62,75,46,7.41,PE,1696017702
205,sao vicente,-23.9631,-46.3919,24.1,78,100,2.57,BR,1696017703
206,lerwick,60.1545,-1.1494,11.0,87,49,12.26,GB,1696017703
207,mandalgovi,45.7625,106.2708,3.66,62,0,0.93,MN,1696017703
208,masina,-4.3836,15.3914,31.16,55,44,3.09,CD,1696017704
209,zag,46.9441,99.165,-0.76,59,54,0.94,MN,1696017704
210,petropavlovsk-kamchatsky,53.0452,158.6483,-1.67,100,0,3.0,RU,1696017704
211,bardai,11.65,7.2333,22.04,90,25,2.46,NG,1696017705
212,mar del plata,-38.0023,-57.5575,10.61,86,100,6.69,AR,1696017604
213,jiehu,35.5428,118.455,14.62,91,0,1.72,CN,1696017705
214,kimberley,-28.7323,24.7623,16.83,27,63,3.09,ZA,1696017705
215,ayancik,41.9447,34.5861,20.98,77,99,0.72,TR,1696017706
216,bubaque,11.2833,-15.8333,28.44,77,25,3.87,GW,1696017706
217,ciudad sabinas hidalgo,26.5,-100.1667,35.25,31,1,5.66,MX,1696017706
218,fort bragg,35.139,-79.006,26.08,68,100,3.09,US,1696017707
219,aasiaat,68.7098,-52.8699,-0.07,91,98,2.1,GL,1696017707
220,kargil,34.5667,76.1,5.61,41,0,2.6,IN,1696017708
221,as samawah,31.332,45.2944,32.85,18,0,6.38,IQ,1696017708
222,anadyr,64.75,177.4833,6.28,81,0,5.81,RU,1696017708
223,san antonio de pale,-1.4014,5.6325,24.79,84,32,4.63,GQ,1696017708
224,islampur,26.2667,88.2,27.73,82,100,2.29,IN,1696017709
225,gisborne,-38.6533,178.0042,11.87,80,100,3.93,NZ,1696017675
226,kavalerovo,44.2661,135.0572,9.47,80,71,0.63,RU,1696017709
227,linxia chengguanzhen,35.6003,103.2064,13.71,75,99,0.54,CN,1696017710
228,la ronge,55.1001,-105.2842,11.14,87,100,2.06,CA,1696017710
229,lagunillas,10.1301,-71.2595,31.79,63,49,3.42,VE,1696017710
230,kiknur,57.3034,47.2011,8.77,91,1,1.89,RU,1696017711
231,richards bay,-28.783,32.0377,22.85,76,0,2.26,ZA,1696017696
232,roma,43.2128,-75.4557,20.53,79,40,4.63,US,1696017504
233,ust'-kulom,61.6864,53.6902,5.51,92,29,0.64,RU,1696017711
234,amahai,-3.3333,128.9167,25.28,87,100,3.37,ID,1696017712
235,fortuna,40.5982,-124.1573,16.63,92,100,0.89,US,1696017712
236,trincomalee,8.5711,81.2335,26.93,75,100,9.03,LK,1696017712
237,deniliquin,-35.5333,144.9667,10.81,36,19,1.82,AU,1696017713
238,sarmasu,46.75,24.1667,13.78,45,0,0.7,RO,1696017713
239,kidal,18.4411,1.4078,35.42,12,16,2.97,ML,1696017713
240,nogliki,51.8333,143.1667,8.01,90,10,2.53,RU,1696017714
241,antsiranana,-12.2787,49.2917,23.3,79,29,7.53,MG,1696017714
242,tsiombe,-25.3,45.4833,21.56,75,0,1.44,MG,1696017714
243,uthal,25.8072,66.6219,28.19,60,0,0.91,PK,1696017715
244,ilhabela,-23.7781,-45.3581,21.63,75,54,4.15,BR,1696017670
245,vernon,50.2581,-119.2691,13.12,75,100,0.51,CA,1696017601
246,kone,-21.0595,164.8658,19.36,69,25,2.68,NC,1696017715
247,constantia,44.1833,28.65,18.38,62,9,6.3,RO,1696017716
248,basavana bagevadi,16.5833,75.9667,21.86,86,90,5.35,IN,1696017716
249,esil,51.9556,66.4042,11.52,69,100,3.4,KZ,1696017716
250,ierapetra,35.01,25.7353,23.97,70,2,3.13,GR,1696017717
251,umluj,25.0213,37.2685,31.46,55,11,1.91,SA,1696017717
252,hola,51.5377,23.1902,16.1,53,1,2.46,PL,1696017717
253,qaqortoq,60.7167,-46.0333,3.89,63,2,0.88,GL,1696017718
254,yeppoon,-23.1333,150.7333,16.88,87,7,2.47,AU,1696017718
255,whitecourt,54.1502,-115.6855,8.58,87,75,3.6,CA,1696017620
256,san rafael del sur,11.8485,-86.4384,34.54,51,79,2.77,NI,1696017719
257,dingtao,35.0683,115.5625,17.3,95,4,0.92,CN,1696017719
258,leava,-14.3,-178.1667,26.93,76,97,8.28,WF,1696017720
259,al muwayh,22.4333,41.7583,28.09,12,5,4.22,SA,1696017720
260,kupino,54.3663,77.2981,8.72,83,87,2.39,RU,1696017721
261,ikskile,56.8333,24.5,18.13,71,100,2.37,LV,1696017721
262,fale old settlement,-9.3852,-171.2468,28.24,75,9,5.87,TK,1696017722
263,udachny,66.4167,112.4,1.36,92,100,5.33,RU,1696017722
264,acarau,-2.8856,-40.12,27.22,70,100,8.61,BR,1696017722
265,ad dawadimi,24.5077,44.3924,27.64,16,1,2.31,SA,1696017723
266,chok chai,14.7284,102.1652,23.67,94,100,2.14,TH,1696017723
267,wynyard,-41.0,145.7167,9.67,92,51,1.41,AU,1696017723
268,gadzhiyevo,69.2551,33.3362,10.31,91,100,6.16,RU,1696017724
269,hamilton,39.1834,-84.5333,26.29,69,40,2.06,US,1696017686
270,palmer,42.1584,-72.3287,12.36,86,100,2.57,US,1696017724
271,kerbakhiar,40.1067,46.0383,10.94,88,87,0.99,AZ,1696017725
272,at taj,24.2049,23.2857,32.53,18,80,8.52,LY,1696017725
273,kegeyli shahar,42.7767,59.6078,14.05,80,22,3.29,UZ,1696017725
274,salinopolis,-0.6136,-47.3561,28.41,71,46,5.38,BR,1696017726
275,champerico,14.3,-91.9167,33.3,66,100,2.82,GT,1696017726
276,ingeniero guillermo n. juarez,-23.9,-61.85,29.07,19,9,4.74,AR,1696017726
277,burang,30.25,81.1667,4.25,70,16,2.19,CN,1696017730
278,mukalla,14.5425,49.1242,28.37,71,5,0.36,YE,1696017733
279,ikwiriri,-7.9562,38.9716,22.98,86,0,1.83,TZ,1696017733
280,evanston,42.0411,-87.6901,25.45,68,1,3.13,US,1696017543
281,rongelap,11.1635,166.8941,28.75,77,95,5.6,MH,1696017737
282,kuanda,56.3161,116.0806,3.35,79,31,0.26,RU,1696017738
283,argo,37.6333,22.7333,21.55,61,76,1.73,GR,1696017523
284,hamamatsu,34.7,137.7333,24.4,84,100,2.12,JP,1696017738
285,hailar,49.2,119.7,4.53,55,8,3.57,CN,1696017739
286,merizo village,13.2658,144.6691,26.1,96,100,3.53,GU,1696017739
287,oeiras,-7.0253,-42.1311,39.53,13,85,2.17,BR,1696017740
288,loikaw,19.6742,97.2094,20.33,100,100,1.0,MM,1696017740
289,alvaraes,-3.2208,-64.8042,34.93,28,90,0.96,BR,1696017677
290,yarmouth,41.7057,-70.2286,17.76,89,100,4.02,US,1696017741
291,alice springs,-23.7,133.8833,13.75,38,100,0.0,AU,1696017741
292,nuku'alofa,-21.1333,-175.2,21.19,68,20,4.12,TO,1696017742
293,mil'kovo,55.6078,37.7956,17.25,71,83,2.81,RU,1696017742
294,fredericksburg,38.3032,-77.4605,23.34,80,100,11.18,US,1696017631
295,crane,31.3974,-102.3501,33.67,30,0,8.64,US,1696017743
296,pujehun,7.3581,-11.7208,24.67,95,100,1.34,SL,1696017743
297,grand gaube,-20.0064,57.6608,23.54,73,3,1.34,MU,1696017743
298,tomatlan,19.9333,-105.25,33.06,63,50,4.28,MX,1696017744
299,tarakan,3.3,117.6333,25.59,87,100,3.12,ID,1696017744
300,ancud,-41.8697,-73.8203,10.11,73,0,3.99,CL,1696017617
301,rakops,-21.0167,24.3333,24.99,21,9,1.29,BW,1696017745
302,pitkyaranta,61.5734,31.4792,13.6,89,100,5.27,RU,1696017745
303,huangshan,29.7114,118.3125,22.52,99,39,0.47,CN,1696017745
304,ringkobing,56.0901,8.244,15.01,79,0,8.77,DK,1696017745
305,isfahan,32.6572,51.6776,17.8,25,1,3.46,IR,1696017746
306,san patricio,28.017,-97.5169,35.66,44,35,5.99,US,1696017746
307,labytnangi,66.6572,66.4183,-0.64,75,34,1.4,RU,1696017747
308,dragasani,44.65,24.2667,21.32,38,29,2.29,RO,1696017747
309,santa cruz,-17.8,-63.1667,31.7,33,20,6.69,BO,1696017596
310,al qubbah,32.7616,22.2424,19.18,82,1,6.81,LY,1696017748
311,kavieng,-2.5744,150.7967,26.95,78,100,1.89,PG,1696017748
312,chebba,35.2372,11.115,23.89,71,0,2.81,TN,1696017748
313,turpan,42.9333,89.1667,22.95,22,100,0.75,CN,1696017749
314,nova sintra,14.8667,-24.7167,24.93,79,100,4.11,CV,1696017749
315,vila franca do campo,37.7167,-25.4333,23.23,99,88,6.2,PT,1696017749
316,taiynsha,53.8478,69.7639,10.66,75,100,2.44,KZ,1696017750
317,mersa matruh,31.3525,27.2453,26.11,78,20,2.57,EG,1696017750
318,barreirinhas,-2.7469,-42.8264,28.58,64,60,5.3,BR,1696017750
319,broken hill,-31.95,141.4333,17.33,30,0,3.3,AU,1696017657
320,sandusky,41.3501,-83.1332,22.73,77,54,0.45,US,1696017550
321,gaillimh,53.2719,-9.0489,12.8,83,100,4.06,IE,1696017751
322,hadibu,12.65,54.0333,26.79,82,89,1.85,YE,1696017751
323,usinsk,65.9939,57.5281,-0.39,82,94,2.4,RU,1696017752
324,howard springs,-12.497,131.047,25.95,74,100,1.74,AU,1696017752
325,bukama,-9.2,25.85,24.25,79,97,0.47,CD,1696017753
326,plymouth,41.8334,-70.8328,17.06,88,100,3.09,US,1696017753
327,zouerate,22.7187,-12.4521,35.54,13,10,4.26,MR,1696017753
328,kolwezi,-10.7148,25.4667,20.85,66,57,2.24,CD,1696017531
329,salida,37.7058,-121.0849,26.79,46,0,3.09,US,1696017574
330,augusto correa,-1.0217,-46.635,29.07,66,22,3.42,BR,1696017754
331,ola,59.5833,151.2833,6.04,86,100,1.24,RU,1696017754
332,prokhorovka,51.0374,36.7325,14.76,39,29,1.44,RU,1696017755
333,san andres,12.5847,-81.7006,32.01,70,40,5.14,CO,1696017755
334,sakakah,29.9697,40.2064,29.76,16,0,3.18,SA,1696017755
335,charters towers,-20.1,146.2667,14.82,94,2,2.45,AU,1696017756
336,fiambala,-27.6871,-67.6149,19.06,29,0,4.79,AR,1696017756
337,touros,-5.1989,-35.4608,26.07,70,89,6.63,BR,1696017757
338,mount gambier,-37.8333,140.7667,12.02,52,77,3.58,AU,1696017757
339,hermoso campo,-27.6082,-61.3444,27.84,29,25,5.78,AR,1696017757
340,taoudenni,22.6783,-3.9836,32.93,15,4,5.92,ML,1696017757
341,undurkhaan,47.3194,110.6556,4.36,73,7,1.73,MN,1696017758
342,bizhbulyak,53.6967,54.2642,9.52,93,42,2.94,RU,1696017758
343,bonthe,7.5264,-12.505,26.34,87,56,2.32,SL,1696017758
344,kismayo,-0.3582,42.5454,25.81,86,6,6.18,SO,1696017525
345,weligama,5.9667,80.4167,24.86,89,93,1.85,LK,1696017759
346,lakeway,30.3638,-97.9796,35.97,38,0,2.68,US,1696017759
347,ebon,4.582,168.6964,26.61,84,100,5.45,MH,1696017759
348,quellon,-43.1167,-73.6167,10.21,61,9,3.97,CL,1696017760
349,olinda,-8.0089,-34.8553,27.85,74,40,5.14,BR,1696017675
350,nelson bay,-32.7167,152.15,16.67,98,4,1.34,AU,1696017760
351,guerrero negro,27.9769,-114.0611,23.45,58,3,5.96,MX,1696017761
352,narrabri,-30.3167,149.7833,16.4,59,0,1.65,AU,1696017761
353,reggane,26.7158,0.1714,32.56,20,0,8.13,DZ,1696017761
354,filadelfia,39.9523,-75.1638,19.14,89,100,5.14,US,1696017514
355,rabo de peixe,37.8,-25.5833,22.73,99,40,6.17,PT,1696017762
356,island harbour,50.724,-1.2758,15.55,89,100,0.89,GB,1696017762
357,bondo,3.8146,23.6866,20.57,99,100,1.13,CD,1696017763
358,ugoofaaru,5.6667,73.0,27.62,79,98,6.11,MV,1696017383
359,zagora,30.3484,-5.8365,28.23,23,1,3.24,MA,1696017764
360,marsh harbour,26.5412,-77.0636,28.86,74,74,2.36,BS,1696017605
361,arraial do cabo,-22.9661,-42.0278,20.98,78,75,5.14,BR,1696017697
362,floro,61.5996,5.0328,12.98,88,75,10.29,NO,1696017764
363,inhambane,-23.865,35.3833,23.99,88,0,3.13,MZ,1696017765
364,brookhaven,31.5791,-90.4407,33.47,28,0,3.56,US,1696017765
365,tenenkou,14.4572,-4.9169,35.65,22,70,1.38,ML,1696017765
366,akcakale,36.7111,38.9475,23.56,48,0,6.11,TR,1696017765
367,sal rei,16.1833,-22.9167,29.11,79,75,5.66,CV,1696017766
368,kattivakkam,13.2167,80.3167,27.05,91,100,3.83,IN,1696017766
369,port alfred,-33.5906,26.891,18.99,72,100,0.89,ZA,1696017766
370,mitu,1.1983,-70.1733,31.02,61,95,0.75,CO,1696017767
371,viedma,-40.8135,-62.9967,10.68,51,0,4.44,AR,1696017518
372,enewetak,11.3474,162.3373,28.81,78,81,6.03,MH,1696017767
373,surovikino,48.6078,42.8486,17.19,34,0,2.66,RU,1696017768
374,yanchep,-31.55,115.6833,17.01,74,18,5.55,AU,1696017768
375,bamboo flat,11.7,92.7167,26.63,85,100,9.14,IN,1696017768
376,yampil',51.95,33.7833,13.84,58,5,1.62,UA,1696017677
377,hargeysa,9.56,44.065,23.9,66,4,1.62,SO,1696017769
378,wuhai,39.6647,106.8122,12.41,20,3,2.92,CN,1696017769
379,mariinsk,56.2139,87.7472,5.88,93,65,2.59,RU,1696017769
380,ghanzi,-21.5667,21.7833,22.34,19,0,3.29,BW,1696017769
381,laughlin,35.1678,-114.573,36.71,19,0,10.8,US,1696017770
382,kangding,30.0513,101.9603,13.37,94,92,0.47,CN,1696017770
383,cozumel,20.5083,-86.9458,29.04,89,75,2.24,MX,1696017770
384,tommot,58.9564,126.2925,2.4,96,85,1.13,RU,1696017770
385,sitka,57.0531,-135.33,10.94,76,75,3.09,US,1696017771
386,arucas,28.1198,-15.5233,23.43,76,8,1.6,ES,1696017771
387,porto murtinho,-21.6989,-57.8825,33.91,26,55,3.11,BR,1696017771
388,mumbwa,-14.9783,27.0619,25.52,37,93,2.41,ZM,1696017771
389,kununurra,-15.7667,128.7333,20.99,64,100,1.54,AU,1696017772
390,skegness,53.1436,0.3363,15.59,75,39,6.35,GB,1696017772
391,as sulayyil,20.4607,45.5779,31.14,10,0,2.47,SA,1696017772
392,takoradi,4.8845,-1.7554,25.49,91,14,3.25,GH,1696017772
393,midvagur,62.0511,-7.1939,9.46,100,100,5.66,FO,1696017773
394,dhromolaxia,34.8755,33.5868,25.41,58,0,2.06,CY,1696017773
395,maracacume,-2.0428,-45.9592,34.7,37,50,4.57,BR,1696017773
396,paramonga,-10.6667,-77.8333,20.96,79,83,5.33,PE,1696017774
397,sos'va,59.1766,61.8558,6.97,92,100,4.72,RU,1696017774
398,asan,36.7836,127.0042,17.15,85,100,2.74,KR,1696017774
399,oranjemund,-28.55,16.4333,14.3,85,89,1.45,NA,1696017774
400,illizi,26.4833,8.4667,32.89,26,100,8.15,DZ,1696017775
401,neiafu,-18.65,-173.9833,23.38,83,75,3.09,TO,1696017775
402,trujillo,-8.116,-79.03,20.98,78,0,5.66,PE,1696017775
403,chernomorskoye,45.5039,32.6997,20.37,59,12,5.78,UA,1696017775
404,aylmer,42.7668,-80.983,22.5,51,58,3.23,CA,1696017480
405,tocopilla,-22.092,-70.1979,20.2,65,19,4.62,CL,1696017714
406,uniao,-4.5858,-42.8642,39.21,19,79,0.41,BR,1696017776
407,kaman,27.65,77.2667,26.84,42,45,0.79,IN,1696017776
408,usogorsk,63.4106,48.6872,9.72,90,100,1.99,RU,1696017777
409,sabha,27.0377,14.4283,27.97,29,10,4.92,LY,1696017777
410,queenstown,-31.8976,26.8753,19.59,27,100,3.13,ZA,1696017777
411,assab,13.0092,42.7394,31.45,71,15,2.87,ER,1696017777
412,rurrenabaque,-14.4413,-67.5278,36.83,38,100,2.06,BO,1696017778
413,gargalianoi,37.0667,21.6333,18.53,71,9,1.53,GR,1696017778
414,boguchany,58.3814,97.4531,8.15,82,100,4.25,RU,1696017778
415,juneau,58.3019,-134.4197,9.56,100,100,1.43,US,1696017647
416,novyy urgal,51.0736,132.5642,6.15,96,99,0.12,RU,1696017779
417,levokumka,44.2317,43.15,16.14,72,81,3.13,RU,1696017779
418,afaahiti,-17.75,-149.2833,26.93,84,37,8.65,PF,1696017779
419,darwin,-12.4611,130.8418,25.99,73,100,1.54,AU,1696017779
420,galle,6.0367,80.217,25.34,87,92,2.5,LK,1696017780
421,damboa,11.156,12.7576,23.9,80,10,1.71,NG,1696017780
422,chutove,49.7104,35.1603,16.49,45,0,3.22,UA,1696017780
423,port lavaca,28.615,-96.6261,34.06,60,0,7.2,US,1696017480
424,tughyl,47.7252,84.2063,13.88,59,70,4.69,KZ,1696017780
425,xinyi,22.373,110.9475,24.74,91,0,0.22,CN,1696017781
426,howrah,22.5892,88.3103,27.0,94,75,1.54,IN,1696017781
427,jobabo,20.9692,-76.2994,33.01,65,98,6.05,CU,1696017781
428,male,4.1748,73.5089,28.97,84,75,5.66,MV,1696017653
429,puerto baquerizo moreno,-0.9,-89.6,26.55,69,75,6.17,EC,1696017782
430,thunder bay,48.4001,-89.3168,15.99,88,100,2.06,CA,1696017687
431,san luis de la loma,17.2706,-100.8939,31.98,68,27,4.35,MX,1696017782
432,la passe,45.5549,-0.8967,21.13,89,100,2.56,FR,1696017782
433,gaspe,48.8334,-64.4819,19.12,45,75,5.14,CA,1696017782
434,olinala,17.8333,-98.85,28.84,45,11,1.47,MX,1696017783
435,outjo,-20.1167,16.15,24.04,16,0,3.4,NA,1696017783
436,guanare,9.0418,-69.7421,34.34,47,80,2.19,VE,1696017783
437,boyolangu,-8.1181,111.8935,21.76,95,33,1.25,ID,1696017784
438,ta`u,-14.2336,-169.5144,26.53,80,39,5.34,AS,1696017784
439,warrnambool,-38.3833,142.4833,13.14,56,23,5.44,AU,1696017535
440,maubin,16.7333,95.65,24.4,97,100,5.68,MM,1696017785
441,piacabucu,-10.4056,-36.4344,26.18,67,91,4.13,BR,1696017758
442,campbell river,50.0163,-125.2446,14.21,54,20,3.09,CA,1696017418
443,luanda,-8.8368,13.2343,24.0,78,20,6.69,AO,1696017785
444,knyaze-volkonskoye,48.4642,135.4567,6.19,92,45,2.23,RU,1696017786
445,okahao,-17.885,15.0667,26.59,16,8,4.05,NA,1696017786
446,katsuura,35.1333,140.3,24.23,85,48,3.62,JP,1696017786
447,gunnison,38.7,-107.0673,20.99,14,4,2.56,US,1696017787
448,walvis bay,-22.9575,14.5053,12.53,94,2,2.06,NA,1696017787
449,nikol'sk,53.7189,46.0712,10.89,82,88,1.92,RU,1696017787
450,kourou,5.1552,-52.6478,32.03,67,6,5.56,GF,1696017787
451,ouarzazat,30.9189,-6.8934,31.16,13,20,3.09,MA,1696017788
452,grand falls-windsor,48.9332,-55.6649,17.8,62,100,1.53,CA,1696017788
453,carutapera,-1.195,-46.02,28.83,68,34,4.36,BR,1696017788
454,thurso,58.5927,-3.5259,11.59,79,5,14.89,GB,1696017788
455,tual,-5.6667,132.75,25.98,85,100,7.02,ID,1696017789
456,abepura,-2.6333,140.5833,23.45,88,20,0.0,ID,1696017789
457,dwarka,22.2394,68.9678,27.57,78,99,4.68,IN,1696017789
458,belo sur tsiribihina,-19.7,44.55,24.82,82,47,2.38,MG,1696017789
459,tabas,33.5959,56.9244,22.12,17,0,1.03,IR,1696017789
460,bahia de caraquez,-0.6,-80.4167,25.1,74,73,5.57,EC,1696017790
461,necochea,-38.5473,-58.7368,9.29,76,100,6.67,AR,1696017738
462,dergaon,26.7,93.9667,26.93,87,100,1.33,IN,1696017790
463,xilin hot,43.9667,116.0333,4.32,73,1,1.97,CN,1696017790
464,hoemul-li,41.4339,129.67,14.71,64,29,1.91,KP,1696017790
465,ishigaki,24.3448,124.1572,27.07,94,75,2.57,JP,1696017791
466,guatrache,-37.6678,-63.5302,16.2,24,0,4.98,AR,1696017791
467,iquique,-20.2208,-70.1431,19.02,81,53,4.72,CL,1696017615
468,truckee,39.328,-120.1833,22.14,44,75,4.63,US,1696017791
469,alva,56.1528,-3.8051,13.15,88,93,4.91,GB,1696017791
470,tateyama,34.9833,139.8667,23.39,81,61,2.84,JP,1696017792
471,regina,50.4501,-104.6178,18.91,36,75,4.63,CA,1696017260
472,prince rupert,54.3161,-130.3201,11.05,88,40,3.09,CA,1696017792
473,san vicente de canete,-13.0751,-76.3835,21.41,75,48,2.97,PE,1696017793
474,erenhot,43.6475,111.9767,9.59,53,46,3.47,CN,1696017793
475,oltinko'l,40.8011,72.1634,18.98,34,86,1.45,UZ,1696017793
476,woodward,36.4337,-99.3904,34.57,37,0,9.77,US,1696017793
477,kasongo-lunda,-6.4667,16.8167,25.92,64,68,0.82,CD,1696017794
478,qamdo,31.1667,97.2333,2.86,73,2,0.16,CN,1696017794
479,black point,-34.6187,137.8972,17.84,40,0,6.36,AU,1696017794
480,puerto aysen,-45.4,-72.7,12.43,87,100,0.89,CL,1696017794
481,taltal,-25.4,-70.4833,17.52,72,26,2.83,CL,1696017687
482,ketchikan,55.3422,-131.6461,11.26,76,20,4.63,US,1696017795
483,monschau,50.55,6.25,14.1,94,75,2.57,DE,1696017795
484,plettenberg bay,-34.0527,23.3716,17.16,71,100,1.32,ZA,1696017795
485,kulhudhuffushi,6.6221,73.07,27.32,80,100,6.61,MV,1696017795
486,glasgow,55.8652,-4.2576,13.35,81,75,5.66,GB,1696017774
487,port saint john's,-31.6229,29.5448,22.29,69,0,3.09,ZA,1696017796
488,campos gerais,-21.235,-45.7586,28.87,39,64,3.81,BR,1696017796
489,sao felix do xingu,-6.6447,-51.995,34.86,34,97,1.01,BR,1696017645
490,veraval,20.9,70.3667,27.79,79,98,4.5,IN,1696017797
491,tuburan,6.6439,122.2736,27.11,79,96,3.0,PH,1696017797
492,riviere-du-loup,47.8304,-69.5342,17.15,51,94,2.06,CA,1696017556
493,tindouf,27.6711,-8.1474,33.25,17,62,2.57,DZ,1696017592
494,grande prairie,55.1667,-118.8027,8.1,81,100,1.03,CA,1696017605
495,muli,2.9167,73.5667,28.27,76,100,6.77,MV,1696017798
496,fada,9.5667,8.3,20.31,87,97,0.73,NG,1696017798
497,ubari,26.5921,12.7805,28.1,27,87,3.76,LY,1696017798
498,cabo san lucas,22.8909,-109.9124,35.9,59,2,5.87,MX,1696017482
499,popondetta,-8.7537,148.2534,21.57,85,12,1.25,PG,1696017799
500,pont rouge,48.8833,-72.0825,16.06,55,4,1.31,CA,1696017800
501,kataysk,56.289,62.5841,9.8,92,100,1.2,RU,1696017500
502,castillos,-34.1667,-53.8333,15.32,85,100,2.27,UY,1696017800
503,aspen,39.1911,-106.8175,23.61,13,0,3.6,US,1696017800
504,kananga,-5.8958,22.4178,24.6,63,47,1.17,CD,1696017800
505,east london,-33.0153,27.9116,22.02,62,100,1.74,ZA,1696017681
506,kill devil hills,36.0307,-75.676,22.0,91,100,3.6,US,1696017801
507,cullowhee,35.3137,-83.1765,27.22,61,40,1.54,US,1696017801
508,kavaratti,10.5669,72.642,27.49,82,65,8.14,IN,1696017801
509,wewak,-3.5534,143.6268,25.48,90,92,2.4,PG,1696017801
510,boyabat,41.4689,34.7667,17.55,91,86,0.48,TR,1696017802
511,concepcion,-36.827,-73.0498,19.89,42,0,5.66,CL,1696017524
512,den burg,53.0542,4.7972,16.99,74,20,5.14,NL,1696017802
513,victorica,-36.2151,-65.4359,17.95,23,0,4.13,AR,1696017803
514,tromso,69.6496,18.957,10.01,93,75,1.03,NO,1696017803
515,labe,11.3182,-12.2833,20.0,94,100,0.6,GN,1696017803
516,mogocha,53.7333,119.7667,0.99,90,20,1.93,RU,1696017803
517,al jawf,29.5,38.75,27.01,19,0,3.41,SA,1696017803
518,onega,63.9061,38.1404,12.09,91,100,3.9,RU,1696017804
519,ayr,55.4627,-4.6339,13.51,82,0,6.17,GB,1696017804
520,tingo maria,-9.2895,-76.0088,25.17,83,100,1.03,PE,1696017804
521,port douglas,-16.4833,145.4667,22.65,72,96,6.92,AU,1696017804
522,manali,13.1667,80.2667,27.05,91,100,3.91,IN,1696017805
523,novodvinsk,64.4165,40.8122,11.04,92,100,3.84,RU,1696017805
524,sarankhola,22.3082,89.7897,26.12,92,100,2.47,BD,1696017805
525,san matias,-16.3667,-58.4,34.52,39,100,1.75,BO,1696017806
526,zarinsk,53.7074,84.9493,8.09,94,84,1.98,RU,1696017806
527,antalaha,-14.9003,50.2788,21.43,85,76,2.47,MG,1696017806
528,chaman,30.9236,66.4512,16.2,18,0,2.65,PK,1696017806
529,zavolzh'ye,56.6428,43.3936,12.66,73,90,1.33,RU,1696017807
530,greenville,35.6127,-77.3663,23.02,94,100,3.6,US,1696017611
531,la palma,33.8464,-118.0467,23.84,70,100,2.57,US,1696017807
532,ende,-8.8432,121.6623,23.19,76,19,0.92,ID,1696017807
533,hami,42.8,93.45,17.09,22,57,2.77,CN,1696017808
534,hinwil,47.2943,8.8439,20.69,71,75,1.03,CH,1696017808
535,derinkuyu,38.3751,34.7342,14.31,54,1,0.75,TR,1696017808
536,mili,6.0815,171.735,26.77,87,100,11.68,MH,1696017808
537,tralee,52.2704,-9.7026,11.43,89,100,1.86,IE,1696017809
538,ujae,8.9322,165.7642,28.44,79,89,6.41,MH,1696017809
539,matoury,4.8483,-52.3317,31.98,58,0,5.14,GF,1696017809
540,new norfolk,-42.7826,147.0587,7.62,94,100,1.54,AU,1696017809
541,lauro de freitas,-12.8944,-38.3272,27.01,74,20,4.12,BR,1696017810
542,hashtpar,37.8008,48.9037,21.22,87,67,0.18,IR,1696017810
543,ust'-ilimsk,58.0006,102.6619,8.26,90,100,2.98,RU,1696017810
544,verkhnevilyuysk,63.4453,120.3167,4.17,91,100,2.51,RU,1696017810
545,shasta lake,40.6804,-122.3708,24.86,41,100,2.45,US,1696017811
546,camenca,48.0319,28.6978,18.56,38,0,2.08,MD,1696017811
547,las veredas,23.1388,-109.7075,37.86,62,20,7.2,MX,1696017812
548,mana,5.6592,-53.7767,29.33,70,32,7.0,GF,1696017812
549,sanming,26.2486,117.6186,24.01,91,0,0.36,CN,1696017812
550,la rioja,42.25,-2.5,16.88,55,3,2.09,ES,1696017812
551,dos hermanas,37.2829,-5.9209,29.87,42,0,5.14,ES,1696017812
552,troitsk,54.0979,61.5773,8.9,97,100,1.79,RU,1696017813
553,muravlenko,63.7898,74.523,-0.94,80,8,6.6,RU,1696017814
554,karratha,-20.7377,116.8463,25.94,48,34,3.76,AU,1696017814
555,saint-philippe,-21.3585,55.7679,21.77,81,50,4.68,RE,1696017814
556,selfoss,63.9331,-20.9971,6.14,66,100,0.65,IS,1696017814
557,ad dilam,23.9915,47.1627,32.23,13,0,1.48,SA,1696017815
558,olyokminsk,60.3736,120.4264,4.86,89,90,1.49,RU,1696017815
559,elko,41.0002,-115.5012,21.47,23,100,1.34,US,1696017815
560,kutum,14.2,24.6667,28.87,39,16,2.02,SD,1696017815
561,al bawiti,28.3492,28.8659,28.7,36,48,6.58,EG,1696017816
562,toyooka,35.5333,134.8333,19.45,84,24,2.2,JP,1696017816
563,lazaro cardenas,17.9583,-102.2,31.65,69,48,3.68,MX,1696017816
564,cantaura,9.3057,-64.3584,36.87,33,98,2.61,VE,1696017816
565,sur,22.5667,59.5289,30.36,35,0,3.93,OM,1696017817
566,darhan,49.4867,105.9228,5.56,78,4,2.68,MN,1696017817
567,alamos,27.0167,-108.9333,37.44,33,3,2.76,MX,1696017610
568,cartagena del chaira,1.3349,-74.8429,35.64,40,89,0.69,CO,1696017817
569,kodinsk,58.6881,99.1844,7.27,85,90,3.33,RU,1696017817
570,murwillumbah,-28.3167,153.4,15.09,94,11,2.06,AU,1696017818
571,nizhneudinsk,54.9076,99.0276,8.5,87,100,2.59,RU,1696017818
